$GNGGA,151420.254,6859.9642,N,03304.1204,E,0,0,,109.5,M,18.2,M,,*53
$GPGSA,A,1,,,,,,,,,,,,,99.99,99.99,1.00*01
$GLGSA,A,1,,,,,,,,,,,,,99.99,99.99,1.00*1D
$GPGSV,3,1,10,25,60,176,,29,53,226,,02,52,096,,31,43,279,*73
$GPGSV,3,2,10,12,30,141,,06,23,048,,23,18,005,,26,09,299,*74
$GPGSV,3,3,10,09,08,033,,05,07,124,*7C
$GLGSV,2,1,7,73,52,300,,81,48,069,,80,47,199,,65,33,028,*58
$GLGSV,2,2,7,72,17,335,,66,16,085,,74,10,334,*68
$GNRMC,151420.254,V,6859.9642,N,03304.1204,E,0.000,0.00,100516,,,N*53
$GNVTG,0.00,T,,M,0.000,N,0.000,K,N*2C
$GNACCURACY,41.7*24
$GNGGA,151421.254,6859.9642,N,03304.1204,E,0,0,,109.5,M,18.2,M,,*52
$GPGSA,A,1,,,,,,,,,,,,,99.99,99.99,1.00*01
$GLGSA,A,1,,,,,,,,,,,,,99.99,99.99,1.00*1D
$GPGSV,3,1,10,25,60,176,,29,53,226,,02,52,096,,31,43,279,*73
$GPGSV,3,2,10,12,30,141,,06,23,048,,23,18,005,,26,09,299,*74
$GPGSV,3,3,10,09,08,033,,05,07,124,*7C
$GLGSV,3,1,9,82,72,201,,73,52,300,,81,48,069,,80,47,199,*52
$GLGSV,3,2,9,65,33,028,,83,18,230,,72,17,335,,66,16,085,*5B
$GLGSV,3,3,9,74,10,334,*6A
$GNRMC,151421.254,V,6859.9642,N,03304.1204,E,0.000,0.00,100516,,,N*52
$GNVTG,0.00,T,,M,0.000,N,0.000,K,N*2C
$GNACCURACY,37.2*20
$GNGGA,151422.254,6859.8662,N,03303.3456,E,0,0,,109.5,M,18.2,M,,*56
$GPGSA,A,1,,,,,,,,,,,,,99.99,99.99,1.00*01
$GLGSA,A,1,,,,,,,,,,,,,99.99,99.99,1.00*1D
$GPGSV,3,1,10,25,60,176,16.9,29,53,226,,02,52,096,,31,43,279,*63
$GPGSV,3,2,10,12,30,141,,06,23,048,,23,18,005,,26,09,299,*74
$GPGSV,3,3,10,09,08,033,,05,07,124,*7C
$GLGSV,3,1,9,82,72,201,,73,52,300,,81,48,069,,80,47,199,*52
$GLGSV,3,2,9,65,33,028,,83,18,230,,72,17,335,,66,16,085,*5B
$GLGSV,3,3,9,74,10,334,*6A
$GNRMC,151422.254,V,6859.8662,N,03303.3456,E,0.000,0.00,100516,,,N*56
$GNVTG,0.00,T,,M,0.000,N,0.000,K,N*2C
$GNACCURACY,53.4*24
$GNGGA,151423.254,6859.8662,N,03303.3456,E,0,0,,109.5,M,18.2,M,,*57
$GPGSA,A,1,,,,,,,,,,,,,99.99,99.99,1.00*01
$GLGSA,A,1,,,,,,,,,,,,,99.99,99.99,1.00*1D
$GPGSV,3,1,10,25,60,176,18.9,29,53,226,,02,52,096,,31,43,279,*6D
$GPGSV,3,2,10,12,30,141,,06,23,048,,23,18,005,,26,09,299,*74
$GPGSV,3,3,10,09,08,033,,05,07,124,*7C
$GLGSV,3,1,9,82,72,201,,73,52,300,,81,48,069,,80,47,199,*52
$GLGSV,3,2,9,65,33,028,,83,18,230,,72,17,335,,66,16,085,*5B
$GLGSV,3,3,9,74,10,334,*6A
$GNRMC,151423.254,V,6859.8662,N,03303.3456,E,0.000,0.00,100516,,,N*57
$GNVTG,0.00,T,,M,0.000,N,0.000,K,N*2C
$GNACCURACY,47.7*22
$GNGGA,151424.254,6859.9680,N,03304.1513,E,0,0,,91.8,M,18.2,M,,*65
$GPGSA,A,1,,,,,,,,,,,,,2.12,1.87,0.99*0F
$GLGSA,A,1,,,,,,,,,,,,,2.12,1.87,0.99*13
$GPGSV,3,1,10,25,60,176,18.9,29,53,226,,02,52,096,29.7,31,43,279,*7F
$GPGSV,3,2,10,12,30,141,,06,23,048,29.3,23,18,005,30.6,26,09,299,*79
$GPGSV,3,3,10,09,08,033,,05,07,124,*7C
$GLGSV,3,1,9,82,72,201,,73,52,300,,81,48,069,32.0,80,47,199,*4D
$GLGSV,3,2,9,65,33,028,,83,18,230,,72,17,335,,66,16,085,*5B
$GLGSV,3,3,9,74,10,334,*6A
$GNRMC,151424.254,V,6859.9680,N,03304.1513,E,1.461,330.04,100516,,,N*5E
$GNVTG,330.04,T,,M,1.461,N,2.706,K,N*29
$GNACCURACY,19.1*2F
$GNGGA,151425.254,6859.9649,N,03304.1232,E,1,5,1.87,93.3,M,18.2,M,,*78
$GPGSA,A,3,25,23,06,02,,,,,,,,,2.12,1.87,0.99*0F
$GLGSA,A,3,81,,,,,,,,,,,,2.12,1.87,0.99*18
$GPGSV,3,1,10,25,60,176,18.9,29,53,226,,02,52,096,31.0,31,43,279,*71
$GPGSV,3,2,10,12,30,141,,06,23,048,29.7,23,18,005,31.5,26,09,299,*7F
$GPGSV,3,3,10,09,08,033,28.5,05,07,124,*6D
$GLGSV,3,1,9,82,72,201,,73,52,300,,81,48,069,33.1,80,47,199,*4D
$GLGSV,3,2,9,65,33,028,,83,18,230,,72,17,335,,66,16,085,*5B
$GLGSV,3,3,9,74,10,334,*6A
$GNRMC,151425.254,A,6859.9649,N,03304.1232,E,1.521,328.83,100516,,,A*45
$GNVTG,328.83,T,,M,1.521,N,2.819,K,A*24
$GNACCURACY,8.1*1F
$GNGGA,151427.000,6859.9642,N,03304.1114,E,1,7,1.60,92.0,M,18.2,M,,*7C
$GPGSA,A,3,25,23,06,02,,,,,,,,,1.87,1.60,0.98*08
$GLGSA,A,3,82,81,65,,,,,,,,,,1.87,1.60,0.98*16
$GPGSV,3,1,10,25,60,176,20.7,29,53,226,,02,52,096,27.1,31,43,279,*72
$GPGSV,3,2,10,12,30,141,,06,23,048,29.7,23,18,005,29.4,26,09,299,*77
$GPGSV,3,3,10,09,08,033,29.7,05,07,124,*6E
$GLGSV,3,1,9,82,72,201,15.1,73,52,300,,81,48,069,33.5,80,47,199,*52
$GLGSV,3,2,9,65,33,028,15.3,83,18,230,,72,17,335,,66,16,085,*42
$GLGSV,3,3,9,74,10,334,*6A
$GNRMC,151427.000,A,6859.9642,N,03304.1114,E,0.642,307.44,100516,,,A*49
$GNVTG,307.44,T,,M,0.642,N,1.189,K,A*26
$GNACCURACY,6.7*17
$GNGGA,151428.000,6859.9623,N,03304.0948,E,1,7,1.60,94.8,M,18.2,M,,*7A
$GPGSA,A,3,25,23,06,02,,,,,,,,,1.87,1.60,0.98*08
$GLGSA,A,3,82,81,65,,,,,,,,,,1.87,1.60,0.98*16
$GPGSV,3,1,10,25,60,176,20.7,29,53,226,,02,52,096,28.9,31,43,279,*75
$GPGSV,3,2,10,12,30,141,,06,23,048,32.6,23,18,005,29.6,26,09,299,*7E
$GPGSV,3,3,10,09,08,033,30.6,05,07,124,*67
$GLGSV,3,1,9,82,72,201,15.1,73,52,300,,81,48,069,33.2,80,47,199,*55
$GLGSV,3,2,9,65,33,028,15.3,83,18,230,,72,17,335,,66,16,085,*42
$GLGSV,3,3,9,74,10,334,*6A
$GNRMC,151428.000,A,6859.9623,N,03304.0948,E,0.623,246.71,100516,,,A*44
$GNVTG,246.71,T,,M,0.623,N,1.154,K,A*23
$GNACCURACY,8.2*1C
$GNGGA,151429.000,6859.9621,N,03304.0940,E,1,8,1.20,99.8,M,18.2,M,,*77
$GPGSA,A,3,25,23,31,06,02,,,,,,,,1.55,1.20,0.98*01
$GLGSA,A,3,82,81,65,,,,,,,,,,1.55,1.20,0.98*1D
$GPGSV,3,1,10,25,60,176,20.5,29,53,226,,02,52,096,30.9,31,43,279,20.1*63
$GPGSV,3,2,10,12,30,141,,06,23,048,33.4,23,18,005,29.7,26,09,299,*7C
$GPGSV,3,3,10,09,08,033,29.4,05,07,124,*6D
$GLGSV,3,1,9,82,72,201,15.1,73,52,300,,81,48,069,34.3,80,47,199,*53
$GLGSV,3,2,9,65,33,028,17.1,83,18,230,,72,17,335,,66,16,085,*42
$GLGSV,3,3,9,74,10,334,*6A
$GNRMC,151429.000,A,6859.9621,N,03304.0940,E,0.503,246.71,100516,,,A*4E
$GNVTG,246.71,T,,M,0.503,N,0.932,K,A*2B
$GNACCURACY,6.7*17
$GNGGA,151430.000,6859.9626,N,03304.0973,E,1,9,1.11,104.8,M,18.2,M,,*4E
$GPGSA,A,3,25,23,31,06,02,,,,,,,,1.47,1.11,0.97*0F
$GLGSA,A,3,82,81,65,73,,,,,,,,,1.47,1.11,0.97*17
$GPGSV,3,1,10,25,60,176,20.4,29,53,226,,02,52,096,30.5,31,43,279,20.1*6E
$GPGSV,3,2,10,12,30,141,,06,23,048,33.4,23,18,005,29.5,26,09,299,*7E
$GPGSV,3,3,10,09,08,033,28.3,05,07,124,*6B
$GLGSV,3,1,9,82,72,201,18.1,73,52,300,16.5,81,48,069,34.1,80,47,199,*40
$GLGSV,3,2,9,65,33,028,17.1,83,18,230,,72,17,335,,66,16,085,*42
$GLGSV,3,3,9,74,10,334,*6A
$GNRMC,151430.000,A,6859.9626,N,03304.0973,E,0.645,247.15,100516,,,A*43
$GNVTG,247.15,T,,M,0.645,N,1.195,K,A*2D
$GNACCURACY,6.0*10
$GNGGA,151431.000,6859.9639,N,03304.1006,E,1,11,0.96,106.2,M,18.2,M,,*74
$GPGSA,A,3,29,25,23,31,06,02,,,,,,,1.33,0.96,0.91*0F
$GLGSA,A,3,82,66,81,65,73,,,,,,,,1.33,0.96,0.91*1C
$GPGSV,3,1,10,25,60,176,21.0,29,53,226,14.6,02,52,096,28.6,31,43,279,20.1*7C
$GPGSV,3,2,10,12,30,141,,06,23,048,32.3,23,18,005,28.6,26,09,299,*7A
$GPGSV,3,3,10,09,08,033,28.1,05,07,124,*69
$GLGSV,3,1,9,82,72,201,18.1,73,52,300,16.5,81,48,069,33.7,80,47,199,*41
$GLGSV,3,2,9,65,33,028,22.2,83,18,230,,72,17,335,,66,16,085,33.2*5B
$GLGSV,3,3,9,74,10,334,*6A
$GNRMC,151431.000,A,6859.9639,N,03304.1006,E,0.558,247.15,100516,,,A*49
$GNVTG,247.15,T,,M,0.558,N,1.033,K,A*2F
$GNACCURACY,5.6*15
$GNGGA,151432.000,6859.9633,N,03304.1013,E,1,11,0.96,105.2,M,18.2,M,,*7A
$GPGSA,A,3,29,25,23,31,06,02,,,,,,,1.33,0.96,0.91*0F
$GLGSA,A,3,82,66,81,65,73,,,,,,,,1.33,0.96,0.91*1C
$GPGSV,3,1,10,25,60,176,21.4,29,53,226,14.6,02,52,096,28.5,31,43,279,21.0*7B
$GPGSV,3,2,10,12,30,141,,06,23,048,32.0,23,18,005,27.6,26,09,299,*76
$GPGSV,3,3,10,09,08,033,28.3,05,07,124,*6B
$GLGSV,3,1,9,82,72,201,17.2,73,52,300,16.0,81,48,069,33.9,80,47,199,*46
$GLGSV,3,2,9,65,33,028,22.2,83,18,230,,72,17,335,,66,16,085,33.2*5B
$GLGSV,3,3,9,74,10,334,*6A
$GNRMC,151432.000,A,6859.9633,N,03304.1013,E,0.948,239.34,100516,,,A*43
$GNVTG,239.34,T,,M,0.948,N,1.756,K,A*2C
$GNACCURACY,5.3*10
$GNGGA,151433.000,6859.9627,N,03304.1022,E,1,11,0.96,104.7,M,18.2,M,,*78
$GPGSA,A,3,29,25,23,31,06,02,,,,,,,1.33,0.96,0.91*0F
$GLGSA,A,3,82,66,81,65,73,,,,,,,,1.33,0.96,0.91*1C
$GPGSV,3,1,10,25,60,176,21.6,29,53,226,14.6,02,52,096,28.9,31,43,279,21.0*75
$GPGSV,3,2,10,12,30,141,,06,23,048,31.6,23,18,005,28.2,26,09,299,*78
$GPGSV,3,3,10,09,08,033,27.7,05,07,124,*60
$GLGSV,3,1,9,82,72,201,16.7,73,52,300,16.0,81,48,069,34.6,80,47,199,*4A
$GLGSV,3,2,9,65,33,028,22.2,83,18,230,,72,17,335,,66,16,085,31.2*59
$GLGSV,3,3,9,74,10,334,*6A
$GNRMC,151433.000,A,6859.9627,N,03304.1022,E,0.898,233.43,100516,,,A*43
$GNVTG,233.43,T,,M,0.898,N,1.664,K,A*2A
$GNACCURACY,5.0*13
$GNGGA,151434.000,6859.9614,N,03304.1012,E,1,11,0.96,103.8,M,18.2,M,,*74
$GPGSA,A,3,29,25,23,31,06,02,,,,,,,1.33,0.96,0.91*0F
$GLGSA,A,3,82,66,81,65,73,,,,,,,,1.33,0.96,0.91*1C
$GPGSV,3,1,10,25,60,176,20.9,29,53,226,17.5,02,52,096,29.5,31,43,279,21.0*76
$GPGSV,3,2,10,12,30,141,,06,23,048,31.1,23,18,005,28.4,26,09,299,*79
$GPGSV,3,3,10,09,08,033,26.7,05,07,124,*61
$GLGSV,3,1,9,82,72,201,16.3,73,52,300,19.2,81,48,069,35.5,80,47,199,*41
$GLGSV,3,2,9,65,33,028,21.1,83,18,230,,72,17,335,,66,16,085,29.9*5B
$GLGSV,3,3,9,74,10,334,*6A
$GNRMC,151434.000,A,6859.9614,N,03304.1012,E,1.387,230.05,100516,,,A*42
$GNVTG,230.05,T,,M,1.387,N,2.570,K,A*2A
$GNACCURACY,4.8*1A
$GNGGA,151435.000,6859.9610,N,03304.0994,E,1,12,0.85,103.6,M,18.2,M,,*78
$GPGSA,A,3,29,25,23,05,31,06,02,,,,,,1.19,0.85,0.83*03
$GLGSA,A,3,82,66,81,65,73,,,,,,,,1.19,0.85,0.83*15
$GPGSV,3,1,10,25,60,176,20.4,29,53,226,17.5,02,52,096,33.9,31,43,279,20.5*78
$GPGSV,3,2,10,12,30,141,,06,23,048,31.0,23,18,005,28.9,26,09,299,*75
$GPGSV,3,3,10,09,08,033,25.7,05,07,124,14.9*70
$GLGSV,3,1,9,82,72,201,16.4,73,52,300,19.2,81,48,069,35.9,80,47,199,*4A
$GLGSV,3,2,9,65,33,028,20.4,83,18,230,,72,17,335,,66,16,085,27.8*50
$GLGSV,3,3,9,74,10,334,*6A
$GNRMC,151435.000,A,6859.9610,N,03304.0994,E,1.264,235.35,100516,,,A*4B
$GNVTG,235.35,T,,M,1.264,N,2.343,K,A*26
$GNACCURACY,4.6*14
$GNGGA,151436.000,6859.9605,N,03304.0976,E,1,13,0.79,103.4,M,18.2,M,,*73
$GPGSA,A,3,29,25,23,05,31,06,02,,,,,,1.11,0.79,0.78*0C
$GLGSA,A,3,82,66,81,74,65,73,,,,,,,1.11,0.79,0.78*19
$GPGSV,3,1,10,25,60,176,20.1,29,53,226,17.5,02,52,096,34.1,31,43,279,20.1*76
$GPGSV,3,2,10,12,30,141,,06,23,048,30.7,23,18,005,29.3,26,09,299,*78
$GPGSV,3,3,10,09,08,033,23.9,05,07,124,14.9*78
$GLGSV,3,1,9,82,72,201,16.6,73,52,300,19.2,81,48,069,36.5,80,47,199,*47
$GLGSV,3,2,9,65,33,028,20.6,83,18,230,,72,17,335,,66,16,085,26.5*5E
$GLGSV,3,3,9,74,10,334,14.8*79
$GNRMC,151436.000,A,6859.9605,N,03304.0976,E,1.079,237.22,100516,,,A*4A
$GNVTG,237.22,T,,M,1.079,N,1.999,K,A*22
$GNACCURACY,4.4*16
$GNGGA,151436.500,6859.9604,N,03304.0979,E,1,13,0.79,104.0,M,18.2,M,,*7B
$GPGSA,A,3,29,25,23,05,31,06,02,,,,,,1.11,0.79,0.78*0C
$GLGSA,A,3,82,66,81,74,65,73,,,,,,,1.11,0.79,0.78*19
$GPGSV,3,1,10,25,60,176,19.3,29,53,226,18.3,02,52,096,33.7,31,43,279,19.9*74
$GPGSV,3,2,10,12,30,141,,06,23,048,30.4,23,18,005,29.3,26,09,299,*7B
$GPGSV,3,3,10,09,08,033,22.8,05,07,124,14.9*78
$GLGSV,3,1,9,82,72,201,16.6,73,52,300,18.8,81,48,069,36.2,80,47,199,*4B
$GLGSV,3,2,9,65,33,028,21.4,83,18,230,,72,17,335,,66,16,085,26.1*59
$GLGSV,3,3,9,74,10,334,15.6*76
$GNRMC,151436.500,A,6859.9604,N,03304.0979,E,0.928,238.69,100516,,,A*4D
$GNVTG,238.69,T,,M,0.928,N,1.719,K,A*28
$GNACCURACY,4.3*11
$GNGGA,151437.000,6859.9605,N,03304.0972,E,1,14,0.76,104.3,M,18.2,M,,*7E
$GPGSA,A,3,29,25,23,05,31,06,02,12,,,,,1.08,0.76,0.77*07
$GLGSA,A,3,82,66,81,74,65,73,,,,,,,1.08,0.76,0.77*11
$GPGSV,3,1,10,25,60,176,18.7,29,53,226,20.0,02,52,096,33.9,31,43,279,19.7*79
$GPGSV,3,2,10,12,30,141,13.4,06,23,048,30.2,23,18,005,29.5,26,09,299,*63
$GPGSV,3,3,10,09,08,033,22.5,05,07,124,14.9*75
$GLGSV,3,1,9,82,72,201,16.0,73,52,300,18.5,81,48,069,36.2,80,47,199,*40
$GLGSV,3,2,9,65,33,028,21.9,83,18,230,,72,17,335,,66,16,085,26.5*50
$GLGSV,3,3,9,74,10,334,15.6*76
$GNRMC,151437.000,A,6859.9605,N,03304.0972,E,1.187,238.82,100516,,,A*4A
$GNVTG,238.82,T,,M,1.187,N,2.200,K,A*2F
$GNACCURACY,4.2*10
$GNGGA,151437.500,6859.9603,N,03304.0958,E,1,14,0.75,104.3,M,18.2,M,,*76
$GPGSA,A,3,29,25,23,05,31,06,02,12,,,,,1.08,0.75,0.77*04
$GLGSA,A,3,82,66,81,74,65,73,,,,,,,1.08,0.75,0.77*12
$GPGSV,3,1,10,25,60,176,18.4,29,53,226,20.0,02,52,096,34.4,31,43,279,19.7*70
$GPGSV,3,2,10,12,30,141,13.4,06,23,048,30.0,23,18,005,29.5,26,09,299,*61
$GPGSV,3,3,10,09,08,033,21.5,05,07,124,14.9*76
$GLGSV,3,1,9,82,72,201,15.6,73,52,300,18.3,81,48,069,36.8,80,47,199,*49
$GLGSV,3,2,9,65,33,028,22.2,83,18,230,,72,17,335,,66,16,085,26.0*5D
$GLGSV,3,3,9,74,10,334,15.6*76
$GNRMC,151437.500,A,6859.9603,N,03304.0958,E,1.339,241.58,100516,,,A*4F
$GNVTG,241.58,T,,M,1.339,N,2.481,K,A*2E
$GNACCURACY,4.1*13
$GNGGA,151438.000,6859.9600,N,03304.0932,E,1,15,0.73,103.7,M,18.2,M,,*77
$GPGSA,A,3,29,25,23,05,31,06,02,12,,,,,1.06,0.73,0.76*0D
$GLGSA,A,3,82,66,81,74,65,72,73,,,,,,1.06,0.73,0.76*1E
$GPGSV,3,1,10,25,60,176,18.2,29,53,226,20.0,02,52,096,34.6,31,43,279,19.6*75
$GPGSV,3,2,10,12,30,141,13.4,06,23,048,29.7,23,18,005,29.8,26,09,299,*63
$GPGSV,3,3,10,09,08,033,20.4,05,07,124,17.0*7C
$GLGSV,3,1,9,82,72,201,15.3,73,52,300,18.2,81,48,069,37.4,80,47,199,*40
$GLGSV,3,2,9,65,33,028,22.4,83,18,230,,72,17,335,16.5,66,16,085,25.6*42
$GLGSV,3,3,9,74,10,334,15.6*76
$GNRMC,151438.000,A,6859.9600,N,03304.0932,E,1.677,243.62,100516,,,A*4E
$GNVTG,243.62,T,,M,1.677,N,3.107,K,A*20
$GNACCURACY,4.0*12
$GNGGA,151439.000,6859.9599,N,03304.0914,E,1,15,0.73,103.8,M,18.2,M,,*7E
$GPGSA,A,3,29,25,23,05,31,06,02,12,,,,,1.06,0.73,0.76*0D
$GLGSA,A,3,82,66,81,74,65,72,73,,,,,,1.06,0.73,0.76*1E
$GPGSV,3,1,10,25,60,176,17.4,29,53,226,20.7,02,52,096,34.4,31,43,279,19.6*79
$GPGSV,3,2,10,12,30,141,13.4,06,23,048,29.6,23,18,005,29.8,26,09,299,*62
$GPGSV,3,3,10,09,08,033,19.1,05,07,124,17.0*73
$GLGSV,3,1,9,82,72,201,15.1,73,52,300,18.1,81,48,069,37.7,80,47,199,*42
$GLGSV,3,2,9,65,33,028,23.1,83,18,230,,72,17,335,16.5,66,16,085,25.4*44
$GLGSV,3,3,9,74,10,334,14.3*72
$GNRMC,151439.000,A,6859.9599,N,03304.0914,E,1.820,246.40,100516,,,A*41
$GNVTG,246.40,T,,M,1.820,N,3.372,K,A*29
$GNACCURACY,4.0*12
$GNGGA,151440.000,6859.9597,N,03304.0894,E,1,15,0.73,104.0,M,18.2,M,,*78
$GPGSA,A,3,29,25,23,05,31,06,02,12,,,,,1.06,0.73,0.76*0D
$GLGSA,A,3,82,66,81,74,65,72,73,,,,,,1.06,0.73,0.76*1E
$GPGSV,3,1,10,25,60,176,16.9,29,53,226,21.2,02,52,096,34.6,31,43,279,19.7*72
$GPGSV,3,2,10,12,30,141,13.4,06,23,048,30.0,23,18,005,29.7,26,09,299,*63
$GPGSV,3,3,10,09,08,033,18.4,05,07,124,17.0*77
$GLGSV,3,1,9,82,72,201,15.7,73,52,300,18.4,81,48,069,37.8,80,47,199,*4E
$GLGSV,3,2,9,65,33,028,23.3,83,18,230,,72,17,335,16.0,66,16,085,25.2*45
$GLGSV,3,3,9,74,10,334,14.3*72
$GNRMC,151440.000,A,6859.9597,N,03304.0894,E,1.899,243.98,100516,,,A*4A
$GNVTG,243.98,T,,M,1.899,N,3.519,K,A*20
$GNACCURACY,3.9*1C
